{
    "features": [

        {
            "geometry": {
                "coordinates": [
                    -71.0855,
                    42.34098
                ],
                "type": "Point"
            },
            "properties": {
                "description": "new_england_conservatory\n",
                "name": "new_england_conservatory\n",
                "title": "New England Conservatory"

            },
            "type": "Feature"
        },
        {
            "geometry": {
                "coordinates": [
                    -71.0828785,
                    42.3431192
                ],
                "type": "Point"
            },
            "properties": {
                "description": "177_st_botolph",
                "name": "177_st_botolph",
                "title": "177 St Botolph"
            },
            "type": "Feature"
        },

        {
            "geometry": {
                "coordinates": [
                    -71.096877,
                    42.3427162
                ],
                "type": "Point"
            },
            "properties": {
                "description": "120_jersey_street",
                "name": "120_jersey_street",
                "title": "120 Jersey Street"
            },
            "type": "Feature"
        },
        {
            "geometry": {
                "coordinates": [
                    -71.1160882,
                    42.3075099
                ],
                "type": "Point"
            },
            "properties": {
                "description": "7_custer_street\n",
                "name": "7_custer_street\n"
            },
            "type": "Feature"
        },

        {
            "geometry": {
                "coordinates": [
                    -71.11409,
                    42.31523
                ],
                "type": "Point"
            },
            "properties": {
                "description": "593_centre_Street",
                "name": "593_centre_Street"
            },
            "type": "Feature"
        },
        {
            "geometry": {
                "coordinates": [
                    -71.1147964,
                    42.3147693
                ],
                "type": "Point"
            },
            "properties": {
                "description": "2_pond_street",
                "name": "2_pond_street"
            },
            "type": "Feature"
        }
    ],
    "type": "FeatureCollection"
}
